$GPGGA,021822.000,3017.3637,N,12007.0581,E,1,06,1.6,75.2,M,7.0,M,,0008*5D
$GPGSA,A,3,18,22,15,31,25,12,,,,,,,2.3,1.6,1.6*38
$GPRMC,021822.000,A,3017.3637,N,12007.0581,E,0.68,189.32,020612,,,A*61
$GPGGA,021823.000,3017.3636,N,12007.0585,E,1,06,1.6,76.8,M,7.0,M,,0008*50
$GPGSA,A,3,18,22,15,31,25,12,,,,,,,2.3,1.6,1.6*38
$GPRMC,021823.000,A,3017.3636,N,12007.0585,E,0.21,273.71,020612,,,A*69
$GPGGA,021824.000,3017.3637,N,12007.0585,E,1,06,1.6,77.2,M,7.0,M,,0088*5D
$GPGSA,A,3,18,22,15,31,25,12,,,,,,,2.3,1.6,1.6*38
$GPRMC,021824.000,A,3017.3637,N,12007.0585,E,1.39,307.24,020612,,,A*65
$GPGGA,021825.000,3017.3643,N,12007.0582,E,1,06,1.6,77.8,M,7.0,M,,0088*52
$GPGSA,A,3,18,22,15,31,25,12,,,,,,,2.3,1.6,1.6*38
$GPRMC,021825.000,A,3017.3643,N,12007.0582,E,1.52,334.68,020612,,,A*65
$GPGGA,021826.000,3017.3648,N,12007.0585,E,1,06,1.6,78.6,M,7.0,M,,0008*5C
$GPGSA,A,3,18,22,15,31,25,12,,,,,,,2.3,1.6,1.6*38
$GPGSV,3,1,11,22,73,263,15,25,59,130,19,14,49,331,,18,48,161,27*72
$GPGSV,3,2,11,12,41,060,13,31,32,252,20,09,13,048,,15,06,101,13*79
$GPGSV,3,3,11,27,01,053,,21,01,183,,29,,142,*4F
$GPRMC,021826.000,A,3017.3648,N,12007.0585,E,1.54,9.20,020612,,,A*6D
$GPGGA,021827.000,3017.3659,N,12007.0590,E,1,06,1.6,79.2,M,7.0,M,,0008*5C
$GPGSA,A,3,18,22,15,31,25,12,,,,,,,2.3,1.6,1.6*38
$GPRMC,021827.000,A,3017.3659,N,12007.0590,E,1.58,6.86,020612,,,A*67
$GPGGA,021828.000,3017.3663,N,12007.0591,E,1,06,1.6,80.2,M,7.0,M,,0088*5D
$GPGSA,A,3,18,22,15,31,25,12,,,,,,,2.3,1.6,1.6*38
$GPRMC,021828.000,A,3017.3663,N,12007.0591,E,1.57,15.37,020612,,,A*57
$GPGGA,021829.000,3017.3662,N,12007.0594,E,1,06,1.6,81.7,M,7.0,M,,0088*5C
$GPGSA,A,3,18,22,15,31,25,12,,,,,,,2.3,1.6,1.6*38
$GPRMC,021829.000,A,3017.3662,N,12007.0594,E,1.77,14.02,020612,,,A*57
$GPGGA,021830.000,3017.3664,N,12007.0597,E,1,06,1.6,83.5,M,7.0,M,,0088*51
$GPGSA,A,3,18,22,15,31,25,12,,,,,,,2.3,1.6,1.6*38
$GPRMC,021830.000,A,3017.3664,N,12007.0597,E,2.06,3.52,020612,,,A*6C
$GPGGA,021831.000,3017.3668,N,12007.0597,E,1,06,1.6,84.5,M,7.0,M,,0088*5B
$GPGSA,A,3,18,22,15,31,25,12,,,,,,,2.3,1.6,1.6*38
$GPGSV,3,1,11,22,73,263,15,25,59,130,20,14,49,331,,18,48,161,28*77
$GPGSV,3,2,11,12,41,060,14,31,32,252,21,09,13,048,,15,06,101,13*7F
$GPGSV,3,3,11,27,01,053,,21,01,183,,29,,142,*4F
$GPRMC,021831.000,A,3017.3668,N,12007.0597,E,2.35,0.63,020612,,,A*60
$GPGGA,021832.000,3017.3671,N,12007.0595,E,1,06,1.6,85.7,M,7.0,M,,0008*51
$GPGSA,A,3,18,22,15,31,25,12,,,,,,,2.3,1.6,1.6*38
$GPRMC,021832.000,A,3017.3671,N,12007.0595,E,2.26,16.31,020612,,,A*5B
$GPGGA,021833.000,3017.3676,N,12007.0595,E,1,06,1.6,87.0,M,7.0,M,,0088*52
$GPGSA,A,3,18,22,15,31,25,12,,,,,,,2.3,1.6,1.6*38
$GPRMC,021833.000,A,3017.3676,N,12007.0595,E,2.46,13.42,020612,,,A*5A
$GPGGA,021834.000,3017.3678,N,12007.0596,E,1,06,1.6,87.4,M,7.0,M,,0008*5C
$GPGSA,A,3,18,22,15,31,25,12,,,,,,,2.3,1.6,1.6*38
$GPRMC,021834.000,A,3017.3678,N,12007.0596,E,2.49,18.22,020612,,,A*52
$GPGGA,021835.000,3017.3679,N,12007.0599,E,1,06,1.6,88.6,M,7.0,M,,0008*5E
$GPGSA,A,3,18,22,15,31,25,12,,,,,,,2.3,1.6,1.6*38
$GPRMC,021835.000,A,3017.3679,N,12007.0599,E,2.56,36.96,020612,,,A*50
$GPGGA,021836.000,3017.3682,N,12007.0600,E,1,05,1.7,89.4,M,7.0,M,,0008*5B
$GPGSA,A,3,18,22,31,25,12,,,,,,,,3.6,1.7,3.2*3F
$GPGSV,3,1,11,22,73,263,15,25,59,130,21,14,49,331,,18,48,161,28*76
$GPGSV,3,2,11,12,41,060,14,31,32,252,22,09,13,048,,15,06,101,*7E
$GPGSV,3,3,11,27,01,053,,21,01,183,,29,,142,*4F
$GPRMC,021836.000,A,3017.3682,N,12007.0600,E,2.33,15.67,020612,,,A*58
$GPGGA,021837.000,3017.3679,N,12007.0600,E,1,05,1.7,90.0,M,7.0,M,,0088*52
$GPGSA,A,3,18,22,31,25,12,,,,,,,,3.6,1.7,3.2*3F
$GPRMC,021837.000,A,3017.3679,N,12007.0600,E,2.45,10.49,020612,,,A*55
$GPGGA,021838.000,3017.3679,N,12007.0600,E,1,05,1.7,90.9,M,7.0,M,,0008*54
$GPGSA,A,3,18,22,31,25,12,,,,,,,,3.6,1.7,3.2*3F
$GPRMC,021838.000,A,3017.3679,N,12007.0600,E,3.00,22.56,020612,,,A*55
$GPGGA,021839.000,3017.3680,N,12007.0599,E,1,05,1.7,91.0,M,7.0,M,,0008*58
$GPGSA,A,3,18,22,31,25,12,,,,,,,,3.6,1.7,3.2*3F
$GPRMC,021839.000,A,3017.3680,N,12007.0599,E,2.83,24.51,020612,,,A*5A
$GPGGA,021840.000,3017.3683,N,12007.0602,E,1,05,1.7,91.5,M,7.0,M,,0008*51
$GPGSA,A,3,18,22,31,25,12,,,,,,,,3.6,1.7,3.2*3F
$GPRMC,021840.000,A,3017.3683,N,12007.0602,E,2.55,10.20,020612,,,A*5C
$GPGGA,021841.000,3017.3685,N,12007.0603,E,1,05,1.7,90.9,M,7.0,M,,0008*5A
$GPGSA,A,3,18,22,31,25,12,,,,,,,,3.6,1.7,3.2*3F
$GPGSV,3,1,11,22,73,263,15,25,59,130,27,14,49,331,,18,48,161,29*71
$GPGSV,3,2,11,12,41,060,14,31,32,252,22,09,13,048,,15,06,101,*7E
$GPGSV,3,3,11,27,01,053,,21,01,183,,29,,142,*4F
$GPRMC,021841.000,A,3017.3685,N,12007.0603,E,2.43,10.06,020612,,,A*59
$GPGGA,021842.000,3017.3684,N,12007.0602,E,1,05,1.7,90.3,M,7.0,M,,0008*53
$GPGSA,A,3,18,22,31,25,12,,,,,,,,3.6,1.7,3.2*3F
$GPRMC,021842.000,A,3017.3684,N,12007.0602,E,1.73,7.29,020612,,,A*61
$GPGGA,021843.000,3017.3685,N,12007.0606,E,1,05,1.7,88.6,M,7.0,M,,0008*5B
$GPGSA,A,3,18,22,31,25,12,,,,,,,,3.6,1.7,3.2*3F
$GPRMC,021843.000,A,3017.3685,N,12007.0606,E,1.23,14.55,020612,,,A*59
$GPGGA,021844.000,3017.3686,N,12007.0604,E,1,05,1.7,85.1,M,7.0,M,,0088*57
$GPGSA,A,3,18,22,31,25,12,,,,,,,,3.6,1.7,3.2*3F
$GPRMC,021844.000,A,3017.3686,N,12007.0604,E,1.06,0.32,020612,,,A*6C
$GPGGA,021845.000,3017.3685,N,12007.0608,E,1,05,1.7,82.7,M,7.0,M,,0008*58
$GPGSA,A,3,18,22,31,25,12,,,,,,,,3.6,1.7,3.2*3F
$GPRMC,021845.000,A,3017.3685,N,12007.0608,E,0.80,57.46,020612,,,A*5C
$GPGGA,021846.000,3017.3685,N,12007.0610,E,1,05,1.7,80.4,M,7.0,M,,0008*53
$GPGSA,A,3,18,22,31,25,12,,,,,,,,3.6,1.7,3.2*3F
$GPGSV,3,1,11,22,73,263,16,25,59,130,28,14,49,331,,18,48,161,30*75
$GPGSV,3,2,11,12,41,060,14,31,32,252,23,09,13,048,,15,06,101,*7F
$GPGSV,3,3,11,27,01,053,,21,01,183,,29,,142,*4F
$GPRMC,021846.000,A,3017.3685,N,12007.0610,E,0.03,184.97,020612,,,A*6E
$GPGGA,021847.000,3017.3684,N,12007.0612,E,1,05,1.7,79.2,M,7.0,M,,0088*51
$GPGSA,A,3,18,22,31,25,12,,,,,,,,3.6,1.7,3.2*3F
$GPRMC,021847.000,A,3017.3684,N,12007.0612,E,0.26,223.83,020612,,,A*60
$GPGGA,021848.000,3017.3682,N,12007.0613,E,1,05,1.7,78.5,M,7.0,M,,0000*5F
$GPGSA,A,3,18,22,31,25,12,,,,,,,,3.6,1.7,3.2*3F
$GPRMC,021848.000,A,3017.3682,N,12007.0613,E,0.37,166.48,020612,,,A*6D
$GPGGA,021849.000,3017.3680,N,12007.0615,E,1,05,1.7,77.0,M,7.0,M,,0088*50
$GPGSA,A,3,18,22,31,25,12,,,,,,,,3.6,1.7,3.2*3F
$GPRMC,021849.000,A,3017.3680,N,12007.0615,E,0.78,148.49,020612,,,A*6E
$GPGGA,021850.000,3017.3675,N,12007.0616,E,1,05,1.7,74.2,M,7.0,M,,0008*50
$GPGSA,A,3,18,22,31,25,12,,,,,,,,3.6,1.7,3.2*3F
$GPRMC,021850.000,A,3017.3675,N,12007.0616,E,1.05,182.96,020612,,,A*60
$GPGGA,021851.000,3017.3669,N,12007.0618,E,1,05,1.7,72.7,M,7.0,M,,0008*51
$GPGSA,A,3,18,22,31,25,12,,,,,,,,3.6,1.7,3.2*3F
$GPGSV,3,1,11,22,73,263,17,25,59,130,28,14,49,331,,18,48,161,30*74
$GPGSV,3,2,11,12,41,060,13,31,32,252,23,09,13,048,,15,06,101,*78
$GPGSV,3,3,11,27,01,053,,21,01,183,,29,,142,*4F
$GPRMC,021851.000,A,3017.3669,N,12007.0618,E,1.49,168.72,020612,,,A*64
$GPGGA,021852.000,3017.3662,N,12007.0620,E,1,05,1.7,70.5,M,7.0,M,,0008*52
$GPGSA,A,3,18,22,31,25,12,,,,,,,,3.6,1.7,3.2*3F
$GPRMC,021852.000,A,3017.3662,N,12007.0620,E,1.81,178.10,020612,,,A*66
$GPGGA,021853.000,3017.3658,N,12007.0619,E,1,05,1.7,69.1,M,7.0,M,,0008*5C
$GPGSA,A,3,18,22,31,25,12,,,,,,,,3.6,1.7,3.2*3F
$GPRMC,021853.000,A,3017.3658,N,12007.0619,E,1.83,219.47,020612,,,A*60
$GPGGA,021854.000,3017.3654,N,12007.0614,E,1,04,3.6,70.6,M,7.0,M,,0088*57
$GPGSA,A,3,18,22,31,25,,,,,,,,,4.7,3.6,3.0*3B
$GPRMC,021854.000,A,3017.3654,N,12007.0614,E,1.20,221.23,020612,,,A*66
$GPGGA,021855.000,3017.3653,N,12007.0613,E,1,04,3.6,71.8,M,7.0,M,,0088*59
$GPGSA,A,3,18,22,31,25,,,,,,,,,4.7,3.6,3.0*3B
$GPRMC,021855.000,A,3017.3653,N,12007.0613,E,0.30,99.69,020612,,,A*58
$GPGGA,021856.000,3017.3655,N,12007.0612,E,1,05,2.5,71.2,M,7.0,M,,0008*54
$GPGSA,A,3,18,22,15,31,25,,,,,,,,3.0,2.5,1.7*38
$GPGSV,3,1,11,22,73,263,17,25,59,130,28,14,49,331,,18,48,161,31*75
$GPGSV,3,2,11,12,41,060,,31,32,252,23,09,13,048,,15,06,101,13*78
$GPGSV,3,3,11,27,01,053,,21,01,183,,29,,142,*4F
$GPRMC,021856.000,A,3017.3655,N,12007.0612,E,0.51,4.86,020612,,,A*6E
$GPGGA,021857.000,3017.3657,N,12007.0612,E,1,05,2.5,69.8,M,7.0,M,,0008*54
$GPGSA,A,3,18,22,15,31,25,,,,,,,,3.0,2.5,1.7*38
$GPRMC,021857.000,A,3017.3657,N,12007.0612,E,0.94,356.17,020612,,,A*68
$GPGGA,021858.000,3017.3662,N,12007.0615,E,1,05,2.5,67.8,M,7.0,M,,0088*54
$GPGSA,A,3,18,22,15,31,25,,,,,,,,3.0,2.5,1.7*38
$GPRMC,021858.000,A,3017.3662,N,12007.0615,E,1.83,35.15,020612,,,A*55
$GPGGA,021859.000,3017.3663,N,12007.0618,E,1,05,2.5,66.1,M,7.0,M,,0008*51
$GPGSA,A,3,18,22,15,31,25,,,,,,,,3.0,2.5,1.7*38
$GPRMC,021859.000,A,3017.3663,N,12007.0618,E,1.43,48.39,020612,,,A*50
$GPGGA,021900.008,3017.3664,N,12007.0622,E,1,05,2.5,65.8,M,7.0,M,,0008*58
$GPGSA,A,3,18,22,15,31,25,,,,,,,,3.0,2.5,1.7*38
$GPRMC,021900.000,A,3017.3664,N,12007.0622,E,1.39,45.38,020612,,,A*52
$GPGGA,021901.000,3017.3665,N,12007.0626,E,1,05,2.5,65.7,M,7.0,M,,0080*53
$GPGSA,A,3,18,22,15,31,25,,,,,,,,3.0,2.5,1.7*38
$GPGSV,3,1,11,22,73,263,16,25,59,130,28,14,49,331,,18,48,161,32*77
$GPGSV,3,2,11,12,41,060,,31,32,252,24,09,13,048,,15,06,101,13*7F
$GPGSV,3,3,11,27,01,053,,21,01,183,,29,,142,*4F
$GPRMC,021901.000,A,3017.3665,N,12007.0626,E,0.80,31.71,020612,,,A*5B
$GPGGA,021902.000,3017.3662,N,12007.0627,E,1,05,2.5,64.6,M,7.0,M,,0008*56
$GPGSA,A,3,18,22,15,31,25,,,,,,,,3.0,2.5,1.7*38
$GPRMC,021902.000,A,3017.3662,N,12007.0627,E,0.30,195.55,020612,,,A*6C
$GPGGA,021903.000,3017.3657,N,12007.0627,E,1,05,2.5,64.0,M,7.0,M,,0008*57
$GPGSA,A,3,18,22,15,31,25,,,,,,,,3.0,2.5,1.7*38
$GPRMC,021903.000,A,3017.3657,N,12007.0627,E,1.35,167.31,020612,,,A*60
$GPGGA,021904.000,3017.3652,N,12007.0629,E,1,04,3.6,64.7,M,7.0,M,,0088*5F
$GPGSA,A,3,18,22,31,25,,,,,,,,,4.7,3.6,2.9*33
$GPRMC,021904.000,A,3017.3652,N,12007.0629,E,1.53,156.86,020612,,,A*62
$GPGGA,021905.000,3017.3650,N,12007.0631,E,1,04,3.6,65.3,M,7.0,M,,0008*50
$GPGSA,A,3,18,22,31,25,,,,,,,,,4.7,3.6,2.9*33
$GPRMC,021905.000,A,3017.3650,N,12007.0631,E,1.16,150.08,020612,,,A*69
$GPGGA,021906.000,3017.3647,N,12007.0632,E,1,04,3.6,65.6,M,7.0,M,,0008*53
$GPGSA,A,3,18,22,31,25,,,,,,,,,4.7,3.6,2.9*33
$GPGSV,3,1,11,22,73,263,16,25,59,130,29,14,49,331,,18,48,161,32*76
$GPGSV,3,2,11,12,41,060,,31,32,252,24,09,13,048,,15,06,101,*7D
$GPGSV,3,3,11,27,01,053,,21,01,183,,29,,142,*4F
$GPRMC,021906.000,A,3017.3647,N,12007.0632,E,0.73,196.38,020612,,,A*64
$GPGGA,021907.000,3017.3646,N,12007.0633,E,1,04,3.6,65.6,M,7.0,M,,0008*52
$GPGSA,A,3,18,22,31,25,,,,,,,,,4.7,3.6,2.9*33
$GPRMC,021907.000,A,3017.3646,N,12007.0633,E,0.50,110.36,020612,,,A*64
$GPGGA,021908.000,3017.3647,N,12007.0632,E,1,04,3.6,65.3,M,7.0,M,,0008*58
$GPGSA,A,3,18,22,31,25,,,,,,,,,4.7,3.6,2.9*33
$GPRMC,021908.000,A,3017.3647,N,12007.0632,E,0.67,52.00,020612,,,A*5D
$GPGGA,021909.000,3017.3648,N,12007.0630,E,1,04,3.6,65.2,M,7.0,M,,0088*55
$GPGSA,A,3,18,22,31,25,,,,,,,,,4.7,3.6,2.9*33
$GPRMC,021909.000,A,3017.3648,N,12007.0630,E,0.50,33.75,020612,,,A*50
$GPGGA,021910.000,3017.3649,N,12007.0628,E,1,04,3.6,65.1,M,7.0,M,,0008*56
$GPGSA,A,3,18,22,31,25,,,,,,,,,4.7,3.6,2.9*33
$GPRMC,021910.000,A,3017.3649,N,12007.0628,E,0.70,23.05,020612,,,A*54
$GPGGA,021911.000,3017.3652,N,12007.0627,E,1,04,3.6,65.2,M,7.0,M,,0088*51
$GPGSA,A,3,18,22,31,25,,,,,,,,,4.7,3.6,2.9*33
$GPGSV,3,1,11,22,73,263,16,25,59,130,28,14,49,331,,18,48,161,32*77
$GPGSV,3,2,11,12,41,060,,31,32,252,24,09,13,048,,15,06,101,*7D
$GPGSV,3,3,11,27,01,053,,21,01,183,,29,,142,*4F
$GPRMC,021911.000,A,3017.3652,N,12007.0627,E,1.00,13.58,020612,,,A*5D
$GPGGA,021912.000,3017.3654,N,12007.0626,E,1,04,3.6,65.3,M,7.0,M,,0008*54
$GPGSA,A,3,18,22,31,25,,,,,,,,,4.7,3.6,2.9*33
$GPRMC,021912.000,A,3017.3654,N,12007.0626,E,1.10,14.86,020612,,,A*5C
$GPGGA,021913.000,3017.3654,N,12007.0623,E,1,04,3.6,65.2,M,7.0,M,,0008*51
$GPGSA,A,3,18,22,31,25,,,,,,,,,4.7,3.6,2.9*33
$GPRMC,021913.000,A,3017.3654,N,12007.0623,E,0.60,18.52,020612,,,A*5B
$GPGGA,021914.000,3017.3652,N,12007.0621,E,1,04,3.6,65.1,M,7.0,M,,0008*51
$GPGSA,A,3,18,22,31,25,,,,,,,,,4.7,3.6,2.9*33
$GPRMC,021914.000,A,3017.3652,N,12007.0621,E,0.48,274.06,020612,,,A*6B
$GPGGA,021915.000,3017.3650,N,12007.0619,E,1,04,3.6,65.1,M,7.0,M,,0008*59
$GPGSA,A,3,18,22,31,25,,,,,,,,,4.7,3.6,2.9*33
$GPRMC,021915.000,A,3017.3650,N,12007.0619,E,0.47,297.23,020612,,,A*66
$GPGGA,021916.000,3017.3650,N,12007.0618,E,1,04,3.6,65.1,M,7.0,M,,0008*5B
$GPGSA,A,3,18,22,31,25,,,,,,,,,4.7,3.6,2.9*33
$GPGSV,3,1,11,22,73,263,16,25,59,130,28,14,49,331,,18,48,161,31*74
$GPGSV,3,2,11,12,41,060,,31,32,252,24,09,13,048,,15,06,101,*7D
$GPGSV,3,3,11,27,01,053,,21,01,183,,29,,142,*4F
$GPRMC,021916.000,A,3017.3650,N,12007.0618,E,0.71,18.42,020612,,,A*53
$GPGGA,021917.000,3017.3650,N,12007.0618,E,1,04,3.6,65.3,M,7.0,M,,0008*58
$GPGSA,A,3,18,22,31,25,,,,,,,,,4.7,3.6,2.9*33
$GPRMC,021917.000,A,3017.3650,N,12007.0618,E,0.40,23.61,020612,,,A*59
$GPGGA,021918.000,3017.3650,N,12007.0615,E,1,04,3.6,65.4,M,7.0,M,,0000*5D
$GPGSA,A,3,18,22,31,25,,,,,,,,,4.7,3.6,2.9*33
$GPRMC,021918.000,A,3017.3650,N,12007.0615,E,0.56,303.96,020612,,,A*65
$GPGGA,021919.000,3017.3650,N,12007.0613,E,1,04,3.6,65.6,M,7.0,M,,0000*58
$GPGSA,A,3,18,22,31,25,,,,,,,,,4.7,3.6,2.9*33
$GPRMC,021919.000,A,3017.3650,N,12007.0613,E,0.18,169.80,020612,,,A*61
$GPGGA,021920.000,3017.3649,N,12007.0614,E,1,04,3.6,65.8,M,7.0,M,,0008*53
$GPGSA,A,3,18,22,31,25,,,,,,,,,4.7,3.6,2.9*33
$GPRMC,021920.000,A,3017.3649,N,12007.0614,E,1.15,120.90,020612,,,A*64
$GPGGA,021921.000,3017.3646,N,12007.0611,E,1,04,3.6,66.0,M,7.0,M,,0008*53
$GPGSA,A,3,18,22,31,25,,,,,,,,,4.7,3.6,2.9*33
$GPGSV,3,1,11,22,73,263,15,25,59,130,27,14,49,331,,18,48,161,31*78
$GPGSV,3,2,11,12,41,060,,31,32,252,23,09,13,048,,15,06,101,*7A
$GPGSV,3,3,11,27,01,053,,21,01,183,,29,,142,*4F
$GPRMC,021921.000,A,3017.3646,N,12007.0611,E,1.53,173.98,020612,,,A*63
$GPGGA,021922.000,3017.3642,N,12007.0611,E,1,04,3.6,66.0,M,7.0,M,,0008*54
$GPGSA,A,3,18,22,31,25,,,,,,,,,4.7,3.6,2.9*33
$GPRMC,021922.000,A,3017.3642,N,12007.0611,E,1.82,151.92,020612,,,A*62
$GPGGA,021923.000,3017.3637,N,12007.0611,E,1,04,3.6,66.0,M,7.0,M,,0008*57
$GPGSA,A,3,18,22,31,25,,,,,,,,,4.7,3.6,2.9*33
$GPRMC,021923.000,A,3017.3637,N,12007.0611,E,1.72,161.89,020612,,,A*67
$GPGGA,021924.000,3017.3632,N,12007.0609,E,1,04,3.6,65.8,M,7.0,M,,0008*57
$GPGSA,A,3,18,22,31,25,,,,,,,,,4.7,3.6,2.9*33
$GPRMC,021924.000,A,3017.3632,N,12007.0609,E,1.90,186.30,020612,,,A*6B
$GPGGA,021925.000,3017.3628,N,12007.0611,E,1,04,3.6,65.8,M,7.0,M,,0000*54
$GPGSA,A,3,18,22,31,25,,,,,,,,,4.7,3.6,2.9*33
$GPRMC,021925.000,A,3017.3628,N,12007.0611,E,1.66,183.97,020612,,,A*69
$GPGGA,021926.000,3017.3628,N,12007.0616,E,1,03,4.4,66.1,M,7.0,M,,0080*58
$GPGSA,A,2,18,31,25,,,,,,,,,,5.4,4.4,3.2*3F
$GPGSV,3,1,11,22,73,263,,25,59,130,27,14,49,331,,18,48,161,30*7D
$GPGSV,3,2,11,12,41,060,,31,32,252,22,09,13,048,,15,06,101,*7B
$GPGSV,3,3,11,27,01,053,,21,01,183,,29,,142,*4F
$GPRMC,021926.000,A,3017.3628,N,12007.0616,E,1.32,146.64,020612,,,A*69
$GPGGA,021927.000,3017.3629,N,12007.0617,E,1,03,4.4,66.5,M,7.0,M,,0000*5D
$GPGSA,A,2,18,31,25,,,,,,,,,,5.4,4.4,3.2*3F
$GPRMC,021927.000,A,3017.3629,N,12007.0617,E,0.82,186.52,020612,,,A*6B
$GPGGA,021928.000,3017.3631,N,12007.0615,E,1,03,4.4,66.8,M,7.0,M,,0008*54
$GPGSA,A,2,18,31,25,,,,,,,,,,5.4,4.4,3.2*3F
$GPRMC,021928.000,A,3017.3631,N,12007.0615,E,0.62,231.87,020612,,,A*66
$GPGGA,021929.000,3017.3633,N,12007.0615,E,1,03,4.4,67.2,M,7.0,M,,0080*5C
$GPGSA,A,2,18,31,25,,,,,,,,,,5.4,4.4,3.2*3F
$GPRMC,021929.000,A,3017.3633,N,12007.0615,E,0.52,120.83,020612,,,A*61
$GPGGA,021930.000,3017.3637,N,12007.0615,E,1,03,4.4,67.4,M,7.0,M,,0008*56
$GPGSA,A,2,18,31,25,,,,,,,,,,5.4,4.4,3.2*3F
$GPRMC,021930.000,A,3017.3637,N,12007.0615,E,0.64,265.14,020612,,,A*64
$GPGGA,021931.000,3017.3639,N,12007.0612,E,1,03,4.4,67.8,M,7.0,M,,0088*52
$GPGSA,A,2,18,31,25,,,,,,,,,,5.4,4.4,3.2*3F
$GPGSV,3,1,11,22,73,263,,25,59,130,29,14,49,331,,18,48,161,30*73
$GPGSV,3,2,11,12,41,060,,31,32,252,21,09,13,048,,15,06,101,*78
###
###

44.4 M